{
  "table": "hydrants",
  "schema": [
    {
      "column_name": "id",
      "data_type": "integer",
      "character_maximum_length": null,
      "is_nullable": "NO",
      "column_default": "nextval('hydrants_id_seq'::regclass)"
    },
    {
      "column_name": "address",
      "data_type": "text",
      "character_maximum_length": null,
      "is_nullable": "YES",
      "column_default": null
    },
    {
      "column_name": "latitude",
      "data_type": "double precision",
      "character_maximum_length": null,
      "is_nullable": "YES",
      "column_default": null
    },
    {
      "column_name": "longitude",
      "data_type": "double precision",
      "character_maximum_length": null,
      "is_nullable": "YES",
      "column_default": null
    },
    {
      "column_name": "type_color",
      "data_type": "text",
      "character_maximum_length": null,
      "is_nullable": "YES",
      "column_default": null
    },
    {
      "column_name": "created_at",
      "data_type": "timestamp without time zone",
      "character_maximum_length": null,
      "is_nullable": "YES",
      "column_default": null
    },
    {
      "column_name": "location",
      "data_type": "USER-DEFINED",
      "character_maximum_length": null,
      "is_nullable": "YES",
      "column_default": null
    },
    {
      "column_name": "barangay_id",
      "data_type": "integer",
      "character_maximum_length": null,
      "is_nullable": "YES",
      "column_default": null
    },
    {
      "column_name": "is_operational",
      "data_type": "boolean",
      "character_maximum_length": null,
      "is_nullable": "NO",
      "column_default": null
    },
    {
      "column_name": "static_pressure",
      "data_type": "smallint",
      "character_maximum_length": null,
      "is_nullable": "YES",
      "column_default": null
    },
    {
      "column_name": "remarks",
      "data_type": "text",
      "character_maximum_length": null,
      "is_nullable": "YES",
      "column_default": null
    }
  ],
  "rowCount": 155,
  "data": [
    {
      "id": 2,
      "address": "334 PALALI COR. DANSALAN ST, BRGY BARANGKA ILAYA, MANDALUYONG CITY",
      "latitude": 14.570837,
      "longitude": 121.044054,
      "type_color": "BARREL/YELLOW",
      "created_at": "2025-06-25T06:32:58.871Z",
      "location": "0101000020E61000008350DEC7D1425E4089B14CBF44242D40",
      "barangay_id": 3,
      "is_operational": true,
      "static_pressure": 50,
      "remarks": null
    },
    {
      "id": 3,
      "address": "ILAYA 301 DANSALAN ST., BRGY BARANGKA ILAYA, MANDALUYONG CITY",
      "latitude": 14.572176,
      "longitude": 121.04399,
      "type_color": "BARREL/YELLOW",
      "created_at": "2025-06-25T06:32:58.871Z",
      "location": "0101000020E610000077D66EBBD0425E40B91CAF40F4242D40",
      "barangay_id": 3,
      "is_operational": false,
      "static_pressure": null,
      "remarks": null
    },
    {
      "id": 4,
      "address": "EDSA COR. APO ST., BRGY BARANGKA ILAYA, MANDALUYONG CITY",
      "latitude": 14.571651,
      "longitude": 121.046656,
      "type_color": "BARREL/YELLOW",
      "created_at": "2025-06-25T06:32:58.871Z",
      "location": "0101000020E6100000618A7269FC425E408E739B70AF242D40",
      "barangay_id": 3,
      "is_operational": true,
      "static_pressure": 50,
      "remarks": null
    },
    {
      "id": 5,
      "address": "ILAYA STREET COR. PINATUBO, BRGY BARANGKA ILAYA, MANDALUYONG CITY",
      "latitude": 14.569165,
      "longitude": 121.044857,
      "type_color": "BARREL/YELLOW",
      "created_at": "2025-06-25T06:32:58.871Z",
      "location": "0101000020E6100000C9FFE4EFDE425E40410E4A9869232D40",
      "barangay_id": 3,
      "is_operational": true,
      "static_pressure": 50,
      "remarks": "Other outlet is defective"
    },
    {
      "id": 6,
      "address": "PASIG RIVER NEAR VICTORIA STORE PHASE 1, BRGY. BUAYANG BATO, MANDALUYONG CITY",
      "latitude": 14.568892,
      "longitude": 121.049156,
      "type_color": "BARREL/YELLOW",
      "created_at": "2025-06-25T06:32:58.871Z",
      "location": "0101000020E6100000BD19355F25435E407DE9EDCF45232D40",
      "barangay_id": 4,
      "is_operational": true,
      "static_pressure": 50,
      "remarks": null
    },
    {
      "id": 7,
      "address": "PIONER STREET COR. SHERIDAN, BRGY. BUAYANG BATO, MANDALUYONG CITY",
      "latitude": 14.570994,
      "longitude": 121.058136,
      "type_color": "BARREL/YELLOW",
      "created_at": "2025-06-25T06:32:58.871Z",
      "location": "0101000020E610000019AE0E80B8435E40A96C585359242D40",
      "barangay_id": 4,
      "is_operational": false,
      "static_pressure": null,
      "remarks": "Loose Thread"
    },
    {
      "id": 8,
      "address": "SHAW BLVRD COR. SHERIDAN STREET, BRGY. HIGHWAY HILLS, MANDALUYONG CITY",
      "latitude": 14.577867,
      "longitude": 121.05683,
      "type_color": "BARREL/YELLOW",
      "created_at": "2025-06-25T06:32:58.871Z",
      "location": "0101000020E6100000A1DB4B1AA3435E4011E0F42EDE272D40",
      "barangay_id": 2,
      "is_operational": true,
      "static_pressure": 50,
      "remarks": null
    },
    {
      "id": 9,
      "address": "GREENFIELD DISTRICT UNITED STREET, BRGY. HIGHWAY HILLS MANDALUYONG CITY",
      "latitude": 14.577356,
      "longitude": 121.054694,
      "type_color": "BARREL/YELLOW",
      "created_at": "2025-06-25T06:32:58.871Z",
      "location": "0101000020E61000006552431B80435E407B4CA4349B272D40",
      "barangay_id": 2,
      "is_operational": true,
      "static_pressure": 50,
      "remarks": null
    },
    {
      "id": 10,
      "address": "EDSA COR, MANDISON STREET, BRGY. HIGHWAY HILLS MANDALUYONG CITY",
      "latitude": 14.574123,
      "longitude": 121.049703,
      "type_color": "BARREL/YELLOW",
      "created_at": "2025-06-25T06:32:58.871Z",
      "location": "0101000020E6100000D6E07D552E435E4048C32973F3252D40",
      "barangay_id": 2,
      "is_operational": false,
      "static_pressure": null,
      "remarks": "No water supply"
    },
    {
      "id": 11,
      "address": "SULTAN STREET COR EDSA, BRGY. HIGHWAY HILLS MANDALUYONG CITY",
      "latitude": 14.580703,
      "longitude": 121.052738,
      "type_color": "BARREL/YELLOW",
      "created_at": "2025-06-25T06:32:58.871Z",
      "location": "0101000020E61000006A50340F60435E40D06053E751292D40",
      "barangay_id": 2,
      "is_operational": true,
      "static_pressure": 50,
      "remarks": null
    },
    {
      "id": 12,
      "address": "CALBAYOG STREET COR. ESTEBAN, BRGY. HIGHWAY HILLS MANDALUYONG CITY",
      "latitude": 14.577514,
      "longitude": 121.048674,
      "type_color": "BARREL/YELLOW",
      "created_at": "2025-06-25T06:33:18.077Z",
      "location": "0101000020E6100000988A8D791D435E40DCF63DEAAF272D40",
      "barangay_id": 2,
      "is_operational": true,
      "static_pressure": 50,
      "remarks": null
    },
    {
      "id": 13,
      "address": "30 DOMINGO M GUEVARA STREET COR. CALBAYOG, BRGY. HIGHWAY HILLS MANDALUYONG CITY",
      "latitude": 14.579113,
      "longitude": 121.049534,
      "type_color": "BARREL/YELLOW",
      "created_at": "2025-06-25T06:33:18.077Z",
      "location": "0101000020E61000009082A7902B435E407C60C77F81282D40",
      "barangay_id": 2,
      "is_operational": true,
      "static_pressure": 50,
      "remarks": null
    },
    {
      "id": 14,
      "address": "EDSA COR. DOMINGO M GUEVARA, BRGY. HIGHWAY HILLS MANDALUYONG CITY",
      "latitude": 14.578405,
      "longitude": 121.051423,
      "type_color": "BARREL/YELLOW",
      "created_at": "2025-06-25T06:33:18.077Z",
      "location": "0101000020E6100000C8D0B1834A435E408EAF3DB324282D40",
      "barangay_id": 2,
      "is_operational": true,
      "static_pressure": 50,
      "remarks": null
    },
    {
      "id": 15,
      "address": "RSG TOWNHOMES A-17 CALBAYOG ST, BRGY. HIGHWAY HILLS MANDALUYONG CITY",
      "latitude": 14.5779,
      "longitude": 121.047134,
      "type_color": "BARREL/YELLOW",
      "created_at": "2025-06-25T06:33:18.077Z",
      "location": "0101000020E6100000E621533E04435E4080B74082E2272D40",
      "barangay_id": 2,
      "is_operational": true,
      "static_pressure": 50,
      "remarks": null
    },
    {
      "id": 16,
      "address": "RSG TOWNHOMES J-4 CALBAYOG ST., BRGY. HIGHWAY HILLS MANDALUYONG CITY",
      "latitude": 14.577633,
      "longitude": 121.047541,
      "type_color": "BARREL/YELLOW",
      "created_at": "2025-06-25T06:33:18.077Z",
      "location": "0101000020E6100000060E68E90A435E40452E3883BF272D40",
      "barangay_id": 2,
      "is_operational": true,
      "static_pressure": 50,
      "remarks": null
    },
    {
      "id": 17,
      "address": "BANAHAW STREET COR. MARIVELES, BRGY. HIGHWAY HILLS MANDALUYONG CITY",
      "latitude": 14.581203,
      "longitude": 121.048589,
      "type_color": "BARREL/YELLOW",
      "created_at": "2025-06-25T06:33:18.077Z",
      "location": "0101000020E6100000817C09151C435E4097AC8A7093292D40",
      "barangay_id": 2,
      "is_operational": true,
      "static_pressure": 50,
      "remarks": "Other outlet is defective"
    },
    {
      "id": 18,
      "address": "CALBAYOG STREET COR. SAMAT, BRGY. HIGHWAY HILLS MANDALUYONG CITY",
      "latitude": 14.582696,
      "longitude": 121.048731,
      "type_color": "BARREL/YELLOW",
      "created_at": "2025-06-25T06:33:18.077Z",
      "location": "0101000020E61000004AD3A0681E435E4021054F21572A2D40",
      "barangay_id": 2,
      "is_operational": true,
      "static_pressure": 50,
      "remarks": null
    },
    {
      "id": 19,
      "address": "DR. JOSE FERNANDEZ, BRGY. HIGHWAY HILLS, MANDALUYONG CITY",
      "latitude": 14.582502,
      "longitude": 121.046691,
      "type_color": "BARREL/YELLOW",
      "created_at": "2025-06-25T06:33:18.077Z",
      "location": "0101000020E61000001F813FFCFC425E408DB5BFB33D2A2D40",
      "barangay_id": 2,
      "is_operational": true,
      "static_pressure": 50,
      "remarks": null
    },
    {
      "id": 20,
      "address": "STANDFORD COR SHAW BLVD., BRGY. WACK WACK, MANDALUYONG CITY",
      "latitude": 14.586782,
      "longitude": 121.050165,
      "type_color": "BARREL/YELLOW",
      "created_at": "2025-06-25T06:33:18.077Z",
      "location": "0101000020E6100000D99942E735435E4050C3B7B06E2C2D40",
      "barangay_id": 1,
      "is_operational": true,
      "static_pressure": 50,
      "remarks": null
    },
    {
      "id": 21,
      "address": "613 LEE STREET, BRGY. WACK WACK, MANDALUYONG CITY",
      "latitude": 14.58738,
      "longitude": 121.047292,
      "type_color": "BARREL/YELLOW",
      "created_at": "2025-06-25T06:33:18.077Z",
      "location": "0101000020E6100000325706D506435E4022A64412BD2C2D40",
      "barangay_id": 1,
      "is_operational": false,
      "static_pressure": null,
      "remarks": "Unserviceable 2 Sides Loose Tread"
    },
    {
      "id": 22,
      "address": "ORTIGAS AVE. LA SALLE GREEN HILLS, BRGY. WACK WACK, MANDALUYONG CITY",
      "latitude": 14.598207,
      "longitude": 121.051928,
      "type_color": "BARREL/YELLOW",
      "created_at": "2025-06-25T06:33:18.077Z",
      "location": "0101000020E6100000CA6FD1C952435E40FF791A3048322D40",
      "barangay_id": 1,
      "is_operational": true,
      "static_pressure": 50,
      "remarks": null
    },
    {
      "id": 23,
      "address": "623 SHAW BLVD., BRGY. WACK WACK, MANDALUYONG CITY",
      "latitude": 14.584585,
      "longitude": 121.049722,
      "type_color": "BARREL/YELLOW",
      "created_at": "2025-06-25T06:34:57.757Z",
      "location": "0101000020E610000012F92EA52E435E40DE76A1B94E2B2D40",
      "barangay_id": 1,
      "is_operational": true,
      "static_pressure": 50,
      "remarks": null
    },
    {
      "id": 24,
      "address": "BARANGAY WACK-WACK 571 WACK WACK ROAD ROYAL MANSION STREET, MANDALUYONG CITY",
      "latitude": 14.587484,
      "longitude": 121.052632,
      "type_color": "BARREL/YELLOW",
      "created_at": "2025-06-25T06:34:57.757Z",
      "location": "0101000020E610000047AE9B525E435E40B6D8EDB3CA2C2D40",
      "barangay_id": 1,
      "is_operational": true,
      "static_pressure": 55,
      "remarks": null
    },
    {
      "id": 25,
      "address": "BARANGAY WACK-WACK 506 WACK WACK ROAD (CENTER) STREET, MANDALUYONG CITY",
      "latitude": 14.588091,
      "longitude": 121.055173,
      "type_color": "BARREL/YELLOW",
      "created_at": "2025-06-25T06:34:57.757Z",
      "location": "0101000020E6100000D2A755F487435E40D52478431A2D2D40",
      "barangay_id": 1,
      "is_operational": true,
      "static_pressure": 50,
      "remarks": null
    },
    {
      "id": 26,
      "address": "BARANGAY WACK-WACK 1552 STANDFORD YALE STREET, MANDALUYONG CITY",
      "latitude": 14.584564,
      "longitude": 121.053004,
      "type_color": "BARREL/YELLOW",
      "created_at": "2025-06-25T06:34:57.757Z",
      "location": "0101000020E6100000A9A3E36A64435E4080D6FCF84B2B2D40",
      "barangay_id": 1,
      "is_operational": true,
      "static_pressure": 40,
      "remarks": null
    },
    {
      "id": 27,
      "address": "BARANGAY WACK-WACK 1555 STANDFORD EDSA (DULO) STREET, MANDALUYONG CITY",
      "latitude": 14.584316,
      "longitude": 121.054402,
      "type_color": "BARREL/YELLOW",
      "created_at": "2025-06-25T06:34:57.757Z",
      "location": "0101000020E610000091B586527B435E401F0F7D772B2B2D40",
      "barangay_id": 1,
      "is_operational": true,
      "static_pressure": 30,
      "remarks": null
    },
    {
      "id": 28,
      "address": "BARANGAY WACK-WACK 703 STANFORD ( DULO) BUFFALO STREET, MANDALUYONG CITY",
      "latitude": 14.600562,
      "longitude": 121.052414,
      "type_color": "DEEP WELL",
      "created_at": "2025-06-25T06:34:57.757Z",
      "location": "0101000020E610000090F63FC05A435E40D270CADC7C332D40",
      "barangay_id": 1,
      "is_operational": true,
      "static_pressure": null,
      "remarks": null
    },
    {
      "id": 29,
      "address": "BARANGAY WACK-WACK 1548 PRINCETON COR HAVARD STREET, MANDALUYONG CITY",
      "latitude": 14.585537,
      "longitude": 121.054425,
      "type_color": "BARREL/YELLOW",
      "created_at": "2025-06-25T06:34:57.757Z",
      "location": "0101000020E61000006DC5FEB27B435E4027327381CB2B2D40",
      "barangay_id": 1,
      "is_operational": true,
      "static_pressure": 55,
      "remarks": null
    },
    {
      "id": 30,
      "address": "BARANGAY WACK-WACK 1548 PRINCETON COR CROMWELL STREET, MANDALUYONG CITY",
      "latitude": 14.585559,
      "longitude": 121.051388,
      "type_color": "BARREL/YELLOW",
      "created_at": "2025-06-25T06:34:57.757Z",
      "location": "0101000020E61000000ADAE4F049435E40C6C1A563CE2B2D40",
      "barangay_id": 1,
      "is_operational": true,
      "static_pressure": 60,
      "remarks": null
    },
    {
      "id": 1,
      "address": "LIONS ROAD - BONI, BRGY BARANGKA ILAYA, MANDALUYONG CITY",
      "latitude": 14.572416,
      "longitude": 121.045246,
      "type_color": "BARREL/YELLOW",
      "created_at": "2025-06-25T06:32:58.871Z",
      "location": "0101000020E610000097917A4FE5425E400E6ABFB513252D40",
      "barangay_id": 3,
      "is_operational": true,
      "static_pressure": 50,
      "remarks": "Other outlet is defective"
    },
    {
      "id": 31,
      "address": "BARANGAY WACK-WACK 498 NORTH WESTERN LA SALLE STREET, MANDALUYONG CITY",
      "latitude": 14.597496,
      "longitude": 121.054068,
      "type_color": "BARREL/YELLOW",
      "created_at": "2025-06-25T06:34:57.757Z",
      "location": "0101000020E6100000A6F0A0D975435E404CFBE6FEEA312D40",
      "barangay_id": 1,
      "is_operational": true,
      "static_pressure": 55,
      "remarks": null
    },
    {
      "id": 32,
      "address": "BARANGAY WACK-WACK 126-A MARYLAND COR COLGATE STREET, MANDALUYONG CITY",
      "latitude": 14.598066,
      "longitude": 121.055874,
      "type_color": "BARREL/YELLOW",
      "created_at": "2025-06-25T06:34:57.757Z",
      "location": "0101000020E610000097AC8A7093435E40F6B2EDB435322D40",
      "barangay_id": 1,
      "is_operational": true,
      "static_pressure": 50,
      "remarks": null
    },
    {
      "id": 33,
      "address": "BARANGAY WACK-WACK 61 LA SALLE COR CONNECTICUT STREET, MANDALUYONG CITY",
      "latitude": 14.600852,
      "longitude": 121.055707,
      "type_color": "BARREL/YELLOW",
      "created_at": "2025-06-25T06:35:24.500Z",
      "location": "0101000020E610000021CA17B490435E40EE7893DFA2332D40",
      "barangay_id": 1,
      "is_operational": true,
      "static_pressure": 50,
      "remarks": null
    },
    {
      "id": 34,
      "address": "BARANGAY WACK-WACK 330 KANSAS COR LAFAYETTE STREET, MANDALUYONG CITY",
      "latitude": 14.599682,
      "longitude": 121.05843,
      "type_color": "BARREL/YELLOW",
      "created_at": "2025-06-25T06:35:24.500Z",
      "location": "0101000020E6100000BDC62E51BD435E40EFFFE38409332D40",
      "barangay_id": 1,
      "is_operational": true,
      "static_pressure": 55,
      "remarks": null
    },
    {
      "id": 35,
      "address": "BARANGAY WACK-WACK 898 HAVARD COR NOTRE DAME STREET, MANDALUYONG CITY",
      "latitude": 14.595322,
      "longitude": 121.054703,
      "type_color": "BARREL/YELLOW",
      "created_at": "2025-06-25T06:35:24.500Z",
      "location": "0101000020E61000008FFF024180435E40BA2D910BCE302D40",
      "barangay_id": 1,
      "is_operational": true,
      "static_pressure": 50,
      "remarks": null
    },
    {
      "id": 36,
      "address": "BARANGAY WACK-WACK 837 HAVARD COR BERKLEY STREET, MANDALUYONG CITY",
      "latitude": 14.593342,
      "longitude": 121.056598,
      "type_color": "BARREL/YELLOW",
      "created_at": "2025-06-25T06:35:24.500Z",
      "location": "0101000020E610000037C1374D9F435E40BCAFCA85CA2F2D40",
      "barangay_id": 1,
      "is_operational": true,
      "static_pressure": 50,
      "remarks": null
    },
    {
      "id": 37,
      "address": "BARANGAY WACK-WACK HAVARD COR COLUMBIA STREET, MANDALUYONG CITY",
      "latitude": 14.590159,
      "longitude": 121.056698,
      "type_color": "BARREL/YELLOW",
      "created_at": "2025-06-25T06:35:24.500Z",
      "location": "0101000020E6100000E9EFA5F0A0435E4050E10852292E2D40",
      "barangay_id": 1,
      "is_operational": true,
      "static_pressure": 50,
      "remarks": null
    },
    {
      "id": 38,
      "address": "BARANGAY WACK-WACK 410 DUKE COR WYOMING STREET, MANDALUYONG CITY",
      "latitude": 14.600157,
      "longitude": 121.057306,
      "type_color": "BARREL/YELLOW",
      "created_at": "2025-06-25T06:35:24.500Z",
      "location": "0101000020E610000055F7C8E6AA435E4052EE3EC747332D40",
      "barangay_id": 1,
      "is_operational": true,
      "static_pressure": 50,
      "remarks": null
    },
    {
      "id": 39,
      "address": "BARANGAY WACK-WACK 667 DUKE COR WISCONSIN STREET, MANDALUYONG CITY",
      "latitude": 14.600295,
      "longitude": 121.054277,
      "type_color": "BARREL/YELLOW",
      "created_at": "2025-06-25T06:35:24.500Z",
      "location": "0101000020E610000033FB3C4679435E4096E7C1DD59332D40",
      "barangay_id": 1,
      "is_operational": true,
      "static_pressure": 50,
      "remarks": null
    },
    {
      "id": 40,
      "address": "BARANGAY WACK-WACK DUKE COR MISSOURE STREET, MANDALUYONG CITY",
      "latitude": 14.600849,
      "longitude": 121.055688,
      "type_color": "DEEP WELL",
      "created_at": "2025-06-25T06:35:24.500Z",
      "location": "0101000020E6100000E6B1666490435E402AABE97AA2332D40",
      "barangay_id": 1,
      "is_operational": true,
      "static_pressure": null,
      "remarks": null
    },
    {
      "id": 41,
      "address": "BARANGAY WACK-WACK 462 DUKE COR HOLY CROSS STREET, MANDALUYONG CITY",
      "latitude": 14.600264,
      "longitude": 121.051527,
      "type_color": "BARREL/YELLOW",
      "created_at": "2025-06-25T06:35:24.500Z",
      "location": "0101000020E61000001AF7E6374C435E40AAEE91CD55332D40",
      "barangay_id": 1,
      "is_operational": true,
      "static_pressure": 50,
      "remarks": null
    },
    {
      "id": 42,
      "address": "BARANGAY WACK-WACK COR NOTRE DAME GATE 5 STREET, MANDALUYONG CITY",
      "latitude": 14.595321,
      "longitude": 121.054719,
      "type_color": "BARREL/YELLOW",
      "created_at": "2025-06-25T06:35:24.500Z",
      "location": "0101000020E610000012DE1E8480435E40793E03EACD302D40",
      "barangay_id": 1,
      "is_operational": true,
      "static_pressure": 50,
      "remarks": null
    },
    {
      "id": 43,
      "address": "BARANGAY WACK-WACK COLUMBIA STREET, MANDALUYONG CITY",
      "latitude": 14.596668,
      "longitude": 121.058294,
      "type_color": "BARREL/YELLOW",
      "created_at": "2025-06-25T06:35:44.885Z",
      "location": "0101000020E610000065E3C116BB435E40B323D5777E312D40",
      "barangay_id": 1,
      "is_operational": true,
      "static_pressure": 50,
      "remarks": null
    },
    {
      "id": 44,
      "address": "BARANGAY WACK-WACK 330 COLUMBIA COR LAFAYETTE STREET, MANDALUYONG CITY",
      "latitude": 14.599683,
      "longitude": 121.05843,
      "type_color": "BARREL/YELLOW",
      "created_at": "2025-06-25T06:35:44.885Z",
      "location": "0101000020E6100000BDC62E51BD435E4031EF71A609332D40",
      "barangay_id": 1,
      "is_operational": true,
      "static_pressure": 50,
      "remarks": null
    },
    {
      "id": 45,
      "address": "BARANGAY WACK-WACK 606 LA SALLE STREET, MANDALUYONG CITY",
      "latitude": 14.598565,
      "longitude": 121.055031,
      "type_color": "DEEP WELL",
      "created_at": "2025-06-25T06:35:44.885Z",
      "location": "0101000020E61000000951BEA085435E407C0F971C77322D40",
      "barangay_id": 1,
      "is_operational": true,
      "static_pressure": null,
      "remarks": null
    },
    {
      "id": 46,
      "address": "SEN. NEPTALI A. GONZALES STREET, SITIO 4 SAN JOSE, MANDALUYONG CITY",
      "latitude": 14.585075,
      "longitude": 121.03195,
      "type_color": "BARREL/YELLOW",
      "created_at": "2025-06-25T06:35:44.885Z",
      "location": "0101000020E6100000DC4603780B425E40166A4DF38E2B2D40",
      "barangay_id": 20,
      "is_operational": true,
      "static_pressure": null,
      "remarks": null
    },
    {
      "id": 47,
      "address": "SEN.NEPTALI A. GONZALES STREET, SITIO 3, MANDALUYONG CITY",
      "latitude": 14.582343,
      "longitude": 121.030445,
      "type_color": "BARREL/YELLOW",
      "created_at": "2025-06-25T06:35:44.885Z",
      "location": "0101000020E6100000E9D495CFF2415E40EB1B98DC282A2D40",
      "barangay_id": 20,
      "is_operational": true,
      "static_pressure": null,
      "remarks": null
    },
    {
      "id": 48,
      "address": "SEN. NEPTALI A. GONZALES STREET, COR. BONI. AVE., SAN JOSE, MANDALUYONG CITY",
      "latitude": 14.580878,
      "longitude": 121.029543,
      "type_color": "BARREL/YELLOW",
      "created_at": "2025-06-25T06:35:44.885Z",
      "location": "0101000020E6100000D9B45208E4415E4089EE59D768292D40",
      "barangay_id": 20,
      "is_operational": true,
      "static_pressure": null,
      "remarks": null
    },
    {
      "id": 49,
      "address": "SENATOR NEPTALI A. GONZALES STREET, SITIO 1, SAN JOSE, MANDALUYONG CITY",
      "latitude": 14.578712,
      "longitude": 121.028446,
      "type_color": "BARREL/YELLOW",
      "created_at": "2025-06-25T06:35:44.885Z",
      "location": "0101000020E6100000EEEC2B0FD2415E40029B73F04C282D40",
      "barangay_id": 20,
      "is_operational": true,
      "static_pressure": null,
      "remarks": null
    },
    {
      "id": 50,
      "address": "169 I LOPEZ ST BARANGAY NEW ZANIGA, MANDALUYONG CITY",
      "latitude": 14.586276,
      "longitude": 121.02879,
      "type_color": "BARREL/YELLOW",
      "created_at": "2025-06-25T06:35:44.885Z",
      "location": "0101000020E6100000EB1C03B2D7415E4001DC2C5E2C2C2D40",
      "barangay_id": 19,
      "is_operational": true,
      "static_pressure": null,
      "remarks": null
    },
    {
      "id": 51,
      "address": "BONI AVE. NEW ZANIGA, MANDALUYONG CITY",
      "latitude": 14.581878,
      "longitude": 121.029116,
      "type_color": "BARREL/YELLOW",
      "created_at": "2025-06-25T06:35:44.885Z",
      "location": "0101000020E610000095F25A09DD415E401686C8E9EB292D40",
      "barangay_id": 19,
      "is_operational": true,
      "static_pressure": null,
      "remarks": null
    },
    {
      "id": 52,
      "address": "I.LOPEZ STREET. NEW ZANIGA, MANDALUYONG CITY",
      "latitude": 14.583922,
      "longitude": 121.02865,
      "type_color": "BARREL/YELLOW",
      "created_at": "2025-06-25T06:35:44.885Z",
      "location": "0101000020E6100000F241CF66D5415E406FD40AD3F72A2D40",
      "barangay_id": 19,
      "is_operational": true,
      "static_pressure": null,
      "remarks": null
    },
    {
      "id": 53,
      "address": "BONI AVE. F. ORTIGAS ST, BRGY. NEW ZANIGA,MANDALUYONG CITY",
      "latitude": 14.583799,
      "longitude": 121.027696,
      "type_color": "BARREL/YELLOW",
      "created_at": "2025-06-25T06:36:03.524Z",
      "location": "0101000020E6100000B98E71C5C5415E4001E0D8B3E72A2D40",
      "barangay_id": 19,
      "is_operational": true,
      "static_pressure": null,
      "remarks": null
    },
    {
      "id": 54,
      "address": "PITONG GATANG REV.AGLIPAY , BRGY.OLD ZANIGA, MANDALUYONG CITY",
      "latitude": 14.581982,
      "longitude": 121.025247,
      "type_color": "BARREL/YELLOW",
      "created_at": "2025-06-25T06:36:03.524Z",
      "location": "0101000020E61000009DD497A59D415E40AAB8718BF9292D40",
      "barangay_id": 25,
      "is_operational": false,
      "static_pressure": null,
      "remarks": "Stock Cap Gasket"
    },
    {
      "id": 55,
      "address": "REVEREND GREGORIO AGLIPAY STREET, BRGY OLD ZANIGA MANDALUYONG CITY",
      "latitude": 14.583117,
      "longitude": 121.024902,
      "type_color": "BARREL/YELLOW",
      "created_at": "2025-06-25T06:36:03.524Z",
      "location": "0101000020E6100000B8E68EFE97415E40B77BB94F8E2A2D40",
      "barangay_id": 25,
      "is_operational": true,
      "static_pressure": null,
      "remarks": "Wall Obstruction"
    },
    {
      "id": 56,
      "address": "T. HERNANDEZ STREET., CORNER PARADA ST., BRGY OLD ZANIGA, MANDALUYONG CITY",
      "latitude": 14.578747,
      "longitude": 121.027116,
      "type_color": "BARREL/YELLOW",
      "created_at": "2025-06-25T06:36:03.524Z",
      "location": "0101000020E6100000B24CBF44BC415E40F450DB8651282D40",
      "barangay_id": 25,
      "is_operational": true,
      "static_pressure": null,
      "remarks": null
    },
    {
      "id": 58,
      "address": "LERMA ST. CORNER CANTERAS BARANGAY OLD ZANIGA, MANDALUYONG CITY",
      "latitude": 14.579822,
      "longitude": 121.027614,
      "type_color": "BARREL/YELLOW",
      "created_at": "2025-06-25T06:36:03.524Z",
      "location": "0101000020E61000005ABA826DC4415E40AC00DF6DDE282D40",
      "barangay_id": 25,
      "is_operational": true,
      "static_pressure": null,
      "remarks": null
    },
    {
      "id": 59,
      "address": "ILANG ILANG STREET BARANGAY BARANGKA DRIVE , MANDALUYONG CITY",
      "latitude": 14.571763,
      "longitude": 121.036668,
      "type_color": "BARREL/YELLOW",
      "created_at": "2025-06-25T06:36:03.524Z",
      "location": "0101000020E6100000D333BDC458425E402E20B41EBE242D40",
      "barangay_id": 10,
      "is_operational": true,
      "static_pressure": null,
      "remarks": null
    },
    {
      "id": 60,
      "address": "HINAHON ST. BARANGKA DRIVE, MANDALUYONG CITY",
      "latitude": 14.572655,
      "longitude": 121.038824,
      "type_color": "BARREL/YELLOW",
      "created_at": "2025-06-25T06:36:03.524Z",
      "location": "0101000020E61000003293A8177C425E4021C8410933252D40",
      "barangay_id": 10,
      "is_operational": true,
      "static_pressure": null,
      "remarks": null
    },
    {
      "id": 61,
      "address": "HILAGA ST. BARANGKA DRIVE, MANDALUYONG CITY",
      "latitude": 14.57245,
      "longitude": 121.03742,
      "type_color": "BARREL/YELLOW",
      "created_at": "2025-06-25T06:36:03.524Z",
      "location": "0101000020E6100000D80DDB1665425E40BE30992A18252D40",
      "barangay_id": 10,
      "is_operational": true,
      "static_pressure": null,
      "remarks": null
    },
    {
      "id": 62,
      "address": "CHAMPACA ST. BARANGKA DRIVE,MANDALUYONG CITY",
      "latitude": 14.573061,
      "longitude": 121.036475,
      "type_color": "BARREL/YELLOW",
      "created_at": "2025-06-25T06:36:03.524Z",
      "location": "0101000020E6100000C8073D9B55425E40E2395B4068252D40",
      "barangay_id": 10,
      "is_operational": true,
      "static_pressure": null,
      "remarks": null
    },
    {
      "id": 63,
      "address": "SOUTH SIKAP ST. PLAINVIEW, MANDALUYONG CITY",
      "latitude": 14.57569,
      "longitude": 121.036288,
      "type_color": "BARREL/YELLOW",
      "created_at": "2025-06-25T06:36:29.373Z",
      "location": "0101000020E61000002F4FE78A52425E40BB44F5D6C0262D40",
      "barangay_id": 12,
      "is_operational": true,
      "static_pressure": null,
      "remarks": null
    },
    {
      "id": 64,
      "address": "SAN FRANCISCO ST, BARANGAY PLAINVIEW, MANDALUYONG CITY",
      "latitude": 14.576148,
      "longitude": 121.032628,
      "type_color": "BARREL/YELLOW",
      "created_at": "2025-06-25T06:36:29.373Z",
      "location": "0101000020E6100000C53BC09316425E40C64FE3DEFC262D40",
      "barangay_id": 12,
      "is_operational": false,
      "static_pressure": null,
      "remarks": null
    },
    {
      "id": 65,
      "address": "SAN RAFAEL ST., BARANGAY PLAINVIEW, MANDALUYONG CITY",
      "latitude": 14.580218,
      "longitude": 121.033663,
      "type_color": "BARREL/YELLOW",
      "created_at": "2025-06-25T06:36:29.373Z",
      "location": "0101000020E61000007505DB8827425E40DF196D5512292D40",
      "barangay_id": 12,
      "is_operational": true,
      "static_pressure": null,
      "remarks": null
    },
    {
      "id": 66,
      "address": "SERGEANT BUMATAY ST., BARANGAY PLAINVIEW, MANDALUYONG CITY",
      "latitude": 14.573801,
      "longitude": 121.035355,
      "type_color": "BARREL/YELLOW",
      "created_at": "2025-06-25T06:36:29.373Z",
      "location": "0101000020E610000001309E4143425E40FED2A23EC9252D40",
      "barangay_id": 12,
      "is_operational": false,
      "static_pressure": null,
      "remarks": "No water supply"
    },
    {
      "id": 67,
      "address": "BUENCONSEJO SAN RAFAEL ST, BARANGAY PLAINVIEW, MANDALUYONG CITY",
      "latitude": 14.577839,
      "longitude": 121.039192,
      "type_color": "BARREL/YELLOW",
      "created_at": "2025-06-25T06:36:29.373Z",
      "location": "0101000020E6100000F390291F82425E40EAB46E83DA272D40",
      "barangay_id": 12,
      "is_operational": false,
      "static_pressure": null,
      "remarks": "Loose Thread"
    },
    {
      "id": 68,
      "address": "SANTO ROSARIO STREET CORNER SAN PEDRO STREET BARANGAY PLAINVIEW, MANDALUYONG CITY",
      "latitude": 14.577898,
      "longitude": 121.032169,
      "type_color": "BARREL/YELLOW",
      "created_at": "2025-06-25T06:36:29.373Z",
      "location": "0101000020E61000007BBC900E0F425E40FDD8243FE2272D40",
      "barangay_id": 12,
      "is_operational": true,
      "static_pressure": null,
      "remarks": null
    },
    {
      "id": 69,
      "address": "STO. ROSARIO EXTENSION, BARANGAY PLAINVIEW, MANDALUYONG CITY",
      "latitude": 14.577358,
      "longitude": 121.030297,
      "type_color": "BARREL/YELLOW",
      "created_at": "2025-06-25T06:36:29.373Z",
      "location": "0101000020E6100000AF0AD462F0415E40FE2AC0779B272D40",
      "barangay_id": 12,
      "is_operational": true,
      "static_pressure": null,
      "remarks": null
    },
    {
      "id": 70,
      "address": "SAN RAFAEL ST. CORNER BONI AVE., BARANGAY MALAMIG, MANDALUYONG CITY",
      "latitude": 14.580668,
      "longitude": 121.030345,
      "type_color": "BARREL/YELLOW",
      "created_at": "2025-06-25T06:36:29.373Z",
      "location": "0101000020E610000037A6272CF1415E40DEAAEB504D292D40",
      "barangay_id": 11,
      "is_operational": true,
      "static_pressure": null,
      "remarks": null
    },
    {
      "id": 71,
      "address": "F.B MARTINEZ AVENUE, BARANGAY PLAINVIEW, MANDALUYONG CITY",
      "latitude": 14.579449,
      "longitude": 121.035834,
      "type_color": "BARREL/YELLOW",
      "created_at": "2025-06-25T06:36:29.373Z",
      "location": "0101000020E61000006E85B01A4B425E405A66118AAD282D40",
      "barangay_id": 12,
      "is_operational": true,
      "static_pressure": null,
      "remarks": null
    },
    {
      "id": 72,
      "address": "TANGLAW COR. SOUTH SIKAP ST., BARANGAY PLAINVIEW, MANDALUYONG CITY",
      "latitude": 14.574936,
      "longitude": 121.036738,
      "type_color": "BARREL/YELLOW",
      "created_at": "2025-06-25T06:36:29.373Z",
      "location": "0101000020E61000004F2157EA59425E400B96EA025E262D40",
      "barangay_id": 12,
      "is_operational": true,
      "static_pressure": null,
      "remarks": null
    },
    {
      "id": 73,
      "address": "MAYSILO CIRCLE, BARANGAY PLAINVIEW, MANDALUYONG CITY",
      "latitude": 14.578151,
      "longitude": 121.034242,
      "type_color": "BARREL/YELLOW",
      "created_at": "2025-06-25T06:45:54.006Z",
      "location": "0101000020E610000094895B0531425E40A54C6A6803282D40",
      "barangay_id": 12,
      "is_operational": true,
      "static_pressure": null,
      "remarks": null
    },
    {
      "id": 74,
      "address": "MARIA CLARA COR. GINHAWA ST. BRGY.PLAINVIEW, MANDALUYONG CITY",
      "latitude": 14.574076,
      "longitude": 121.038477,
      "type_color": "BARREL/YELLOW",
      "created_at": "2025-06-25T06:45:54.006Z",
      "location": "0101000020E61000007C293C6876425E4045D61A4AED252D40",
      "barangay_id": 12,
      "is_operational": true,
      "static_pressure": null,
      "remarks": null
    },
    {
      "id": 75,
      "address": "F.B MARTINEZ AVENUE, ADDITION HILLS, MANDALUYONG CITY",
      "latitude": 14.58404,
      "longitude": 121.037138,
      "type_color": "BARREL/YELLOW",
      "created_at": "2025-06-25T06:45:54.006Z",
      "location": "0101000020E610000016DC0F7860425E40971C774A072B2D40",
      "barangay_id": 18,
      "is_operational": true,
      "static_pressure": null,
      "remarks": null
    },
    {
      "id": 76,
      "address": "CLAIRMONT DRIVE ACCIA LANE BARANGAY ADDITION HILLS, MANDALUYONG CITY",
      "latitude": 14.588739,
      "longitude": 121.035588,
      "type_color": "BARREL/YELLOW",
      "created_at": "2025-06-25T06:45:54.006Z",
      "location": "0101000020E61000005308E41247425E406EC2BD326F2D2D40",
      "barangay_id": 18,
      "is_operational": true,
      "static_pressure": null,
      "remarks": null
    },
    {
      "id": 77,
      "address": "PILAR STREET CORNER SHAW BLVD. ADDITION HILLS, MANDALUYONG CITY",
      "latitude": 14.589158,
      "longitude": 121.042068,
      "type_color": "BARREL/YELLOW",
      "created_at": "2025-06-25T06:45:54.006Z",
      "location": "0101000020E6100000520DFB3DB1425E40815A0C1EA62D2D40",
      "barangay_id": 18,
      "is_operational": false,
      "static_pressure": null,
      "remarks": "Loose Thread, Stock up Gasket"
    },
    {
      "id": 78,
      "address": "NUEVE DE PEBRERO ST. ADDITION HILLS, MANDALUYONG CITY",
      "latitude": 14.588353,
      "longitude": 121.03761,
      "type_color": "BARREL/YELLOW",
      "created_at": "2025-06-25T06:45:54.006Z",
      "location": "0101000020E61000002A00C63368425E40C901BB9A3C2D2D40",
      "barangay_id": 18,
      "is_operational": false,
      "static_pressure": null,
      "remarks": "Loose Thread"
    },
    {
      "id": 79,
      "address": "BRGY. ROAD, ADDITION HILLS, MANDALUYONG CITY",
      "latitude": 14.585824,
      "longitude": 121.037753,
      "type_color": "BARREL/YELLOW",
      "created_at": "2025-06-25T06:45:54.006Z",
      "location": "0101000020E6100000DB148F8B6A425E407F6C921FF12B2D40",
      "barangay_id": 18,
      "is_operational": true,
      "static_pressure": null,
      "remarks": null
    },
    {
      "id": 80,
      "address": "F. MARTINEZ AVE. CORNER BLOCK 40 BUROL ST., BARANGAY ADDITION HILLS, MANDALUYONG CITY",
      "latitude": 14.582042,
      "longitude": 121.036752,
      "type_color": "BARREL/YELLOW",
      "created_at": "2025-06-25T06:45:54.006Z",
      "location": "0101000020E610000002840F255A425E40FFCBB568012A2D40",
      "barangay_id": 18,
      "is_operational": true,
      "static_pressure": null,
      "remarks": "Obstruction by garbage"
    },
    {
      "id": 81,
      "address": "DOH ACCIA LANE, PERAS STREET, BARANGAY ADDITION HILLS, MANDALUYONG CITY",
      "latitude": 14.585218,
      "longitude": 121.034959,
      "type_color": "BARREL/YELLOW",
      "created_at": "2025-06-25T06:45:54.006Z",
      "location": "0101000020E6100000DB6CACC43C425E40A10F96B1A12B2D40",
      "barangay_id": 18,
      "is_operational": true,
      "static_pressure": null,
      "remarks": null
    },
    {
      "id": 82,
      "address": "287 BRGY. MABINI- J RIZAL, MANDALUYONG CITY",
      "latitude": 14.583972,
      "longitude": 121.021218,
      "type_color": "BARREL/YELLOW",
      "created_at": "2025-06-25T06:45:54.006Z",
      "location": "0101000020E61000008A05BEA25B415E40368FC360FE2A2D40",
      "barangay_id": 27,
      "is_operational": true,
      "static_pressure": null,
      "remarks": null
    },
    {
      "id": 83,
      "address": "2 VILLARICA ST., BRGY. MABINI- J RIZAL, MANDALUYONG CITY",
      "latitude": 14.58673,
      "longitude": 121.022647,
      "type_color": "BARREL/YELLOW",
      "created_at": "2025-06-25T06:45:54.006Z",
      "location": "0101000020E61000009016670C73415E40062AE3DF672C2D40",
      "barangay_id": 27,
      "is_operational": true,
      "static_pressure": null,
      "remarks": null
    },
    {
      "id": 84,
      "address": "331 NANIRAHAN, BRGY. MABINI- J RIZAL, MANDALUYONG CITY",
      "latitude": 14.586348,
      "longitude": 121.023666,
      "type_color": "BARREL/YELLOW",
      "created_at": "2025-06-25T06:45:54.006Z",
      "location": "0101000020E6100000BD0166BE83415E40672618CE352C2D40",
      "barangay_id": 27,
      "is_operational": true,
      "static_pressure": null,
      "remarks": null
    },
    {
      "id": 85,
      "address": "3161 F ROXAS, BRGY. MABINI- J RIZAL, MANDALUYONG CITY",
      "latitude": 14.587353,
      "longitude": 121.021215,
      "type_color": "BARREL/YELLOW",
      "created_at": "2025-06-25T06:45:54.006Z",
      "location": "0101000020E6100000D1CB28965B415E403C6A4C88B92C2D40",
      "barangay_id": 27,
      "is_operational": true,
      "static_pressure": null,
      "remarks": null
    },
    {
      "id": 86,
      "address": "54 A, BRGY. MABINI- J RIZAL, MANDALUYONG CITY",
      "latitude": 14.586753,
      "longitude": 121.022648,
      "type_color": "BARREL/YELLOW",
      "created_at": "2025-06-25T06:45:54.006Z",
      "location": "0101000020E610000078D4981073415E40E7A8A3E36A2C2D40",
      "barangay_id": 27,
      "is_operational": true,
      "static_pressure": null,
      "remarks": null
    },
    {
      "id": 87,
      "address": "ABELLA ST., BRGY. MABINI- J RIZAL, MANDALUYONG CITY",
      "latitude": 14.585452,
      "longitude": 121.021372,
      "type_color": "BARREL/YELLOW",
      "created_at": "2025-06-25T06:45:54.006Z",
      "location": "0101000020E61000003543AA285E415E406EC1525DC02B2D40",
      "barangay_id": 27,
      "is_operational": true,
      "static_pressure": null,
      "remarks": null
    },
    {
      "id": 88,
      "address": "567 SANIBOY ST. BRGY. HULO, MANDALUYONG CITY",
      "latitude": 14.5748,
      "longitude": 121.026201,
      "type_color": "BARREL/YELLOW",
      "created_at": "2025-06-25T06:45:54.006Z",
      "location": "0101000020E6100000D787F546AD415E404A7B832F4C262D40",
      "barangay_id": 5,
      "is_operational": true,
      "static_pressure": null,
      "remarks": null
    },
    {
      "id": 89,
      "address": "561 RET REV AGLIPAY, BRGY. HULO, MANDALUYONG CITY",
      "latitude": 14.576849,
      "longitude": 121.027258,
      "type_color": "BARREL/YELLOW",
      "created_at": "2025-06-25T06:45:54.006Z",
      "location": "0101000020E61000007BA35698BE415E40EA758BC058272D40",
      "barangay_id": 5,
      "is_operational": true,
      "static_pressure": null,
      "remarks": null
    },
    {
      "id": 90,
      "address": "41 PRIVATE RD BRGY. HULO, MANDALUYONG CITY",
      "latitude": 14.573522,
      "longitude": 121.030113,
      "type_color": "BARREL/YELLOW",
      "created_at": "2025-06-25T06:45:54.006Z",
      "location": "0101000020E6100000CE8B135FED415E40B212F3ACA4252D40",
      "barangay_id": 5,
      "is_operational": true,
      "static_pressure": null,
      "remarks": null
    },
    {
      "id": 91,
      "address": "160 PRIVATE RD., BRGY. HULO, MANDALUYONG CITY",
      "latitude": 14.571182,
      "longitude": 121.033125,
      "type_color": "BARREL/YELLOW",
      "created_at": "2025-06-25T06:45:54.006Z",
      "location": "0101000020E610000085EB51B81E425E40B42094F771242D40",
      "barangay_id": 5,
      "is_operational": true,
      "static_pressure": null,
      "remarks": null
    },
    {
      "id": 92,
      "address": "741 E. PANTALEON, BRGY. HULO, MANDALUYONG CITY",
      "latitude": 14.569611,
      "longitude": 121.03518,
      "type_color": "BARREL/YELLOW",
      "created_at": "2025-06-25T06:45:54.006Z",
      "location": "0101000020E61000004A5E9D6340425E403BE2900DA4232D40",
      "barangay_id": 5,
      "is_operational": true,
      "static_pressure": null,
      "remarks": null
    },
    {
      "id": 93,
      "address": "599 RET REV AGLIPAY, BRGY. HULO, MANDALUYONG CITY",
      "latitude": 14.575327,
      "longitude": 121.02792,
      "type_color": "BARREL/YELLOW",
      "created_at": "2025-06-25T06:45:54.006Z",
      "location": "0101000020E6100000E0B9F770C9415E40F702B34291262D40",
      "barangay_id": 5,
      "is_operational": true,
      "static_pressure": null,
      "remarks": null
    },
    {
      "id": 94,
      "address": "168 CORONADO, BRGY. HULO, MANDALUYONG CITY",
      "latitude": 14.570002,
      "longitude": 121.031873,
      "type_color": "BARREL/YELLOW",
      "created_at": "2025-06-25T06:45:54.006Z",
      "location": "0101000020E610000007280D350A425E40274F594DD7232D40",
      "barangay_id": 5,
      "is_operational": true,
      "static_pressure": null,
      "remarks": null
    },
    {
      "id": 95,
      "address": "425 SAN JOSE, SITIO IV, BRGY. HULO, MANDALUYONG CITY",
      "latitude": 14.569924,
      "longitude": 121.033502,
      "type_color": "BARREL/YELLOW",
      "created_at": "2025-06-25T06:45:54.006Z",
      "location": "0101000020E6100000709692E524425E4038691A14CD232D40",
      "barangay_id": 5,
      "is_operational": true,
      "static_pressure": null,
      "remarks": null
    },
    {
      "id": 96,
      "address": "930 MRR TRACK, BRGY. BARANGKA IBABA MANDALUYONG CITY",
      "latitude": 14.568003,
      "longitude": 121.038205,
      "type_color": "BARREL/YELLOW",
      "created_at": "2025-06-25T06:45:54.006Z",
      "location": "0101000020E6100000CC6262F371425E404D0F0A4AD1222D40",
      "barangay_id": 9,
      "is_operational": true,
      "static_pressure": null,
      "remarks": null
    },
    {
      "id": 97,
      "address": "24 P. CRUZ BRGY. BARANGKA IBABA, MANDALUYONG CITY",
      "latitude": 14.569298,
      "longitude": 121.039619,
      "type_color": "BARREL/YELLOW",
      "created_at": "2025-06-25T06:45:54.006Z",
      "location": "0101000020E61000003753211E89425E403E5B07077B232D40",
      "barangay_id": 9,
      "is_operational": true,
      "static_pressure": null,
      "remarks": null
    },
    {
      "id": 98,
      "address": "E PANTALEON ST. BRGY. BARANGKA IBABA, MANDALUYONG CITY",
      "latitude": 14.569568,
      "longitude": 121.039948,
      "type_color": "BARREL/YELLOW",
      "created_at": "2025-06-25T06:45:54.006Z",
      "location": "0101000020E610000099620E828E425E403EB2B96A9E232D40",
      "barangay_id": 9,
      "is_operational": true,
      "static_pressure": null,
      "remarks": null
    },
    {
      "id": 99,
      "address": "31 P. OLIVEROS, BRGY, BARANGKA IBABA MANDALUYONG CITY",
      "latitude": 14.570888,
      "longitude": 121.040157,
      "type_color": "BARREL/YELLOW",
      "created_at": "2025-06-25T06:45:54.006Z",
      "location": "0101000020E6100000266DAAEE91425E40925B936E4B242D40",
      "barangay_id": 9,
      "is_operational": true,
      "static_pressure": null,
      "remarks": null
    },
    {
      "id": 100,
      "address": "P CRUZ COUNTRY SIDE, BRGY. BARANGKA IBABA, MANDALUYONG CITY",
      "latitude": 14.570394,
      "longitude": 121.038348,
      "type_color": "BARREL/YELLOW",
      "created_at": "2025-06-25T06:45:54.006Z",
      "location": "0101000020E61000007D772B4B74425E4054ABAFAE0A242D40",
      "barangay_id": 9,
      "is_operational": true,
      "static_pressure": null,
      "remarks": null
    },
    {
      "id": 101,
      "address": "64 P CRUZ, BRGY. BARANGKA IBABA, MANDALUYONG CITY",
      "latitude": 14.570451,
      "longitude": 121.038321,
      "type_color": "BARREL/YELLOW",
      "created_at": "2025-06-25T06:45:54.006Z",
      "location": "0101000020E61000000070ECD973425E40E5F0492712242D40",
      "barangay_id": 9,
      "is_operational": true,
      "static_pressure": null,
      "remarks": null
    },
    {
      "id": 102,
      "address": "236 J. SALINGA ST. BRGY. BARANGKA ITAAS, MANDALUYONG CITY",
      "latitude": 14.57121,
      "longitude": 121.041147,
      "type_color": "BARREL/YELLOW",
      "created_at": "2025-06-25T06:45:54.006Z",
      "location": "0101000020E610000006D50627A2425E40DC4B1AA375242D40",
      "barangay_id": 7,
      "is_operational": true,
      "static_pressure": null,
      "remarks": null
    },
    {
      "id": 103,
      "address": "526, JP RIZAL BRGY. VERGARA, MANDALUYONG CITY",
      "latitude": 14.576243,
      "longitude": 121.024319,
      "type_color": "BARREL/YELLOW",
      "created_at": "2025-06-25T06:45:54.006Z",
      "location": "0101000020E6100000F96A47718E415E400D198F5209272D40",
      "barangay_id": 8,
      "is_operational": true,
      "static_pressure": null,
      "remarks": null
    },
    {
      "id": 104,
      "address": "477 M. ALEATAZ BRGY. VERGARA, MANDALUYONG CITY",
      "latitude": 14.577973,
      "longitude": 121.022102,
      "type_color": "BARREL/YELLOW",
      "created_at": "2025-06-25T06:45:54.006Z",
      "location": "0101000020E610000047CB811E6A415E4028F1B913EC272D40",
      "barangay_id": 8,
      "is_operational": true,
      "static_pressure": null,
      "remarks": null
    },
    {
      "id": 105,
      "address": "EXECUTIVE MANSION, G ENRIQUEZ, BRGY. VERGARA MANDALUYONG CITY",
      "latitude": 14.578852,
      "longitude": 121.02447,
      "type_color": "BARREL/YELLOW",
      "created_at": "2025-06-25T06:45:54.006Z",
      "location": "0101000020E6100000EB6E9EEA90415E40C972124A5F282D40",
      "barangay_id": 8,
      "is_operational": true,
      "static_pressure": null,
      "remarks": null
    },
    {
      "id": 106,
      "address": "EXECUTIVE MANSION, G ENRIQUEZ, BRGY. VERGARA MANDALUYONG CITY",
      "latitude": 14.579467,
      "longitude": 121.024365,
      "type_color": "BARREL/YELLOW",
      "created_at": "2025-06-25T06:45:54.006Z",
      "location": "0101000020E6100000B18A37328F415E40F3380CE6AF282D40",
      "barangay_id": 8,
      "is_operational": true,
      "static_pressure": null,
      "remarks": null
    },
    {
      "id": 107,
      "address": "924 I TRINIDAD, MANDALUYONG CITY",
      "latitude": 14.577484,
      "longitude": 121.024133,
      "type_color": "BARREL/YELLOW",
      "created_at": "2025-06-25T06:45:54.006Z",
      "location": "0101000020E6100000487023658B415E4031ED9BFBAB272D40",
      "barangay_id": 8,
      "is_operational": true,
      "static_pressure": null,
      "remarks": null
    },
    {
      "id": 108,
      "address": "410 JP. RIZAL BRGY. NAMAYAN, MANDALUYONG CITY",
      "latitude": 14.57873,
      "longitude": 121.020965,
      "type_color": "BARREL/YELLOW",
      "created_at": "2025-06-25T06:45:54.006Z",
      "location": "0101000020E61000001557957D57415E409C6D6E4C4F282D40",
      "barangay_id": 6,
      "is_operational": true,
      "static_pressure": null,
      "remarks": null
    },
    {
      "id": 109,
      "address": "165 ALLEY 4, BRGY. NAMAYAN, MANDALUYONG CITY",
      "latitude": 14.580238,
      "longitude": 121.019288,
      "type_color": "BARREL/YELLOW",
      "created_at": "2025-06-25T06:45:54.006Z",
      "location": "0101000020E6100000234DBC033C415E40FBCA83F414292D40",
      "barangay_id": 6,
      "is_operational": true,
      "static_pressure": null,
      "remarks": null
    },
    {
      "id": 110,
      "address": "378 DOÃ‘A B. YANGCO, BRGY. NAMAYAN, MANDALUYONG CITY",
      "latitude": 14.580596,
      "longitude": 121.020034,
      "type_color": "BARREL/YELLOW",
      "created_at": "2025-06-25T06:45:54.006Z",
      "location": "0101000020E6100000B7B3AF3C48415E40786000E143292D40",
      "barangay_id": 6,
      "is_operational": true,
      "static_pressure": null,
      "remarks": null
    },
    {
      "id": 111,
      "address": "969 DONA YANGCO, MANDALUYONG CITY",
      "latitude": 14.58138,
      "longitude": 121.019103,
      "type_color": "BARREL/YELLOW",
      "created_at": "2025-06-25T06:45:54.006Z",
      "location": "0101000020E61000005A10CAFB38415E40D218ADA3AA292D40",
      "barangay_id": 6,
      "is_operational": true,
      "static_pressure": null,
      "remarks": null
    },
    {
      "id": 112,
      "address": "324A J.P RIZAL, BRGY NAMAYAN, MANDALUYONG CITY",
      "latitude": 14.58221,
      "longitude": 121.012097,
      "type_color": "BARREL/YELLOW",
      "created_at": "2025-06-25T06:45:54.006Z",
      "location": "0101000020E61000004DD87E32C6405E40EECEDA6D172A2D40",
      "barangay_id": 6,
      "is_operational": true,
      "static_pressure": null,
      "remarks": null
    },
    {
      "id": 113,
      "address": "375, BRGY. JP RIZAL, BRGY. NAMAYAN, MANDALUYONG CITY",
      "latitude": 14.580555,
      "longitude": 121.02088,
      "type_color": "BARREL/YELLOW",
      "created_at": "2025-06-25T06:45:54.006Z",
      "location": "0101000020E6100000FE48111956415E40FE0E45813E292D40",
      "barangay_id": 6,
      "is_operational": true,
      "static_pressure": null,
      "remarks": null
    },
    {
      "id": 114,
      "address": "102 JUPITER JP RIZAL, BRGY. NAMAYAN, MANDALUYONG CITY",
      "latitude": 14.580942,
      "longitude": 121.022808,
      "type_color": "BARREL/YELLOW",
      "created_at": "2025-06-25T06:45:54.006Z",
      "location": "0101000020E61000009485AFAF75415E40E4BED53A71292D40",
      "barangay_id": 6,
      "is_operational": true,
      "static_pressure": null,
      "remarks": null
    },
    {
      "id": 115,
      "address": "651 GEN KALENTONG ST., BRGY. PAGASA, MANDALUYONG CITY",
      "latitude": 14.589871,
      "longitude": 121.024223,
      "type_color": "BARREL/YELLOW",
      "created_at": "2025-06-25T06:45:54.006Z",
      "location": "0101000020E6100000E833A0DE8C415E40B7B75B92032E2D40",
      "barangay_id": 21,
      "is_operational": true,
      "static_pressure": null,
      "remarks": null
    },
    {
      "id": 116,
      "address": "858 INOCENTES ST., CORNER MODESTA MATEO ST. BRGY. PAGASA, MANDALUYONG CITY",
      "latitude": 14.588524,
      "longitude": 121.024919,
      "type_color": "BARREL/YELLOW",
      "created_at": "2025-06-25T06:45:54.006Z",
      "location": "0101000020E61000002383DC4598415E407CD28904532D2D40",
      "barangay_id": 21,
      "is_operational": true,
      "static_pressure": null,
      "remarks": null
    },
    {
      "id": 117,
      "address": "7 SHAW BLVD., BRGY. BAKAL, MANDALUYONG CITY",
      "latitude": 14.593638,
      "longitude": 121.027167,
      "type_color": "BARREL/YELLOW",
      "created_at": "2025-06-25T06:45:54.006Z",
      "location": "0101000020E6100000F321A81ABD415E406153E751F12F2D40",
      "barangay_id": 23,
      "is_operational": true,
      "static_pressure": null,
      "remarks": null
    },
    {
      "id": 118,
      "address": "UNIT 1 TFN BUILDING KALENTONG, CORNER HAIG ST., MANDALUYONG CITY",
      "latitude": 14.595028,
      "longitude": 121.027551,
      "type_color": "BARREL/YELLOW",
      "created_at": "2025-06-25T06:45:54.006Z",
      "location": "0101000020E610000037FE4465C3415E4098689082A7302D40",
      "barangay_id": 23,
      "is_operational": true,
      "static_pressure": null,
      "remarks": null
    },
    {
      "id": 119,
      "address": "269 A LUNA ST., BRGY. BUROL, MANDALUYONG CITY",
      "latitude": 14.588933,
      "longitude": 121.027246,
      "type_color": "BARREL/YELLOW",
      "created_at": "2025-06-25T06:45:54.006Z",
      "location": "0101000020E610000099BC0166BE415E4002124DA0882D2D40",
      "barangay_id": 13,
      "is_operational": true,
      "static_pressure": null,
      "remarks": null
    },
    {
      "id": 120,
      "address": "PAG-ASA ST.,-MAGALONA, BRGY. BUROL, MANDALUYONG CITY",
      "latitude": 14.590254,
      "longitude": 121.027635,
      "type_color": "BARREL/YELLOW",
      "created_at": "2025-06-25T06:45:54.006Z",
      "location": "0101000020E6100000664E97C5C4415E4097AAB4C5352E2D40",
      "barangay_id": 13,
      "is_operational": true,
      "static_pressure": null,
      "remarks": null
    },
    {
      "id": 121,
      "address": "CAVO F. SANCHEZ ST., BRGY. HAGDAN BATO ITAAS, MANDALUYONG CITY",
      "latitude": 14.588392,
      "longitude": 121.030712,
      "type_color": "BARREL/YELLOW",
      "created_at": "2025-06-25T06:45:54.006Z",
      "location": "0101000020E610000010E6762FF7415E40C1745AB7412D2D40",
      "barangay_id": 15,
      "is_operational": true,
      "static_pressure": null,
      "remarks": null
    },
    {
      "id": 122,
      "address": "M. GONZAGA ST., BRGY. HAGDAN BATO ITAAS, MANDALUYONG CITY",
      "latitude": 14.588573,
      "longitude": 121.032325,
      "type_color": "BARREL/YELLOW",
      "created_at": "2025-06-25T06:45:54.006Z",
      "location": "0101000020E6100000F775E09C11425E40029EB470592D2D40",
      "barangay_id": 15,
      "is_operational": true,
      "static_pressure": null,
      "remarks": "Loose thread"
    },
    {
      "id": 123,
      "address": "P. BURGOS ST., COR C.F SANCHEZ, BRGY. HAGDAN BATO ITAAS, MANDALUYONG CITY",
      "latitude": 14.588687,
      "longitude": 121.029291,
      "type_color": "BARREL/YELLOW",
      "created_at": "2025-06-25T06:45:54.006Z",
      "location": "0101000020E61000004CC45BE7DF415E402429E961682D2D40",
      "barangay_id": 15,
      "is_operational": true,
      "static_pressure": null,
      "remarks": null
    },
    {
      "id": 124,
      "address": "F. ORTIGAS ST. COR T. BERNARDO, BRGY. HAGDAN BATO ITAAS, MANDALUYONG CITY",
      "latitude": 14.585809,
      "longitude": 121.031255,
      "type_color": "BARREL/YELLOW",
      "created_at": "2025-06-25T06:45:54.006Z",
      "location": "0101000020E610000089B5F81400425E40A9674128EF2B2D40",
      "barangay_id": 15,
      "is_operational": true,
      "static_pressure": null,
      "remarks": null
    },
    {
      "id": 125,
      "address": "SEN. NEPTALI GONZALES ST. COR J. LUNA EXT. ST., BRGY. HAGDAN BATO ITAAS, MANDALUYONG CITY",
      "latitude": 14.59065,
      "longitude": 121.030034,
      "type_color": "BARREL/YELLOW",
      "created_at": "2025-06-25T06:45:54.006Z",
      "location": "0101000020E610000028F1B913EC415E40CAC342AD692E2D40",
      "barangay_id": 15,
      "is_operational": true,
      "static_pressure": null,
      "remarks": "Loose thread"
    },
    {
      "id": 126,
      "address": "AT REYES ST. COR. REV. AGLIPAY ST., BRGY POBLACION, MANDALUYONG CITY",
      "latitude": 14.586294,
      "longitude": 121.025745,
      "type_color": "BARREL/YELLOW",
      "created_at": "2025-06-25T06:45:54.006Z",
      "location": "0101000020E610000046425BCEA5415E409BAE27BA2E2C2D40",
      "barangay_id": 26,
      "is_operational": true,
      "static_pressure": null,
      "remarks": null
    },
    {
      "id": 127,
      "address": "AT REYES ST. COR. STAR ST., BRGY. POBLACION, MANDALUYONG CITY",
      "latitude": 14.588011,
      "longitude": 121.026682,
      "type_color": "BARREL/YELLOW",
      "created_at": "2025-06-25T06:45:54.006Z",
      "location": "0101000020E610000014596B28B5415E4063601DC70F2D2D40",
      "barangay_id": 26,
      "is_operational": true,
      "static_pressure": null,
      "remarks": null
    },
    {
      "id": 128,
      "address": "169 I LOPEZ ST., BRGY. POBLACION, MANDALUYONG CITY",
      "latitude": 14.586186,
      "longitude": 121.028855,
      "type_color": "BARREL/YELLOW",
      "created_at": "2025-06-25T06:45:54.006Z",
      "location": "0101000020E6100000DE54A4C2D8415E4001BF4692202C2D40",
      "barangay_id": 26,
      "is_operational": true,
      "static_pressure": null,
      "remarks": null
    },
    {
      "id": 129,
      "address": "P. GOMEZ ST., CORNER SATURDAY ST., MANDALUYONG CITY",
      "latitude": 14.587418,
      "longitude": 121.029775,
      "type_color": "BARREL/YELLOW",
      "created_at": "2025-06-25T06:45:54.006Z",
      "location": "0101000020E610000042CF66D5E7415E40D829560DC22C2D40",
      "barangay_id": 26,
      "is_operational": true,
      "static_pressure": null,
      "remarks": null
    },
    {
      "id": 130,
      "address": "412 COR. STAR ST., BRGY. POBLACION, MANDALUYONG CITY",
      "latitude": 14.587333,
      "longitude": 121.028045,
      "type_color": "BARREL/YELLOW",
      "created_at": "2025-06-25T06:45:54.006Z",
      "location": "0101000020E61000003F74417DCB415E401FB935E9B62C2D40",
      "barangay_id": 26,
      "is_operational": true,
      "static_pressure": null,
      "remarks": null
    },
    {
      "id": 131,
      "address": "431 VARGAS ST., CORNER SHAW BLVD., BRGY. BAGONG SILANG, MANDALUYONG CITY",
      "latitude": 14.591486,
      "longitude": 121.03185,
      "type_color": "BARREL/YELLOW",
      "created_at": "2025-06-25T06:45:54.006Z",
      "location": "0101000020E61000002B1895D409425E406E15C440D72E2D40",
      "barangay_id": 22,
      "is_operational": true,
      "static_pressure": null,
      "remarks": null
    },
    {
      "id": 132,
      "address": "16 LAWSON ST, CORNER SHAW BLVD., BRGY. BAGONG SILANG, MANDALUYONG CITY",
      "latitude": 14.592005,
      "longitude": 121.030913,
      "type_color": "BARREL/YELLOW",
      "created_at": "2025-06-25T06:45:54.006Z",
      "location": "0101000020E61000005C01857AFA415E40102384471B2F2D40",
      "barangay_id": 22,
      "is_operational": true,
      "static_pressure": null,
      "remarks": null
    },
    {
      "id": 133,
      "address": "SEN. NEPTALI GONZALES ST. COR MAGALONA ST., HARAPIN ANG BUKAS, MANDALUYONG CITY",
      "latitude": 14.591156,
      "longitude": 121.028795,
      "type_color": "BARREL/YELLOW",
      "created_at": "2025-06-25T06:45:54.006Z",
      "location": "0101000020E610000074D2FBC6D7415E4019ABCDFFAB2E2D40",
      "barangay_id": 14,
      "is_operational": true,
      "static_pressure": null,
      "remarks": null
    },
    {
      "id": 134,
      "address": "825 NUEVE DE PEBRERO ST, BARANGAY MAUWAY, MANDALUYONG CITY",
      "latitude": 14.580994,
      "longitude": 121.044334,
      "type_color": "BARREL/YELLOW",
      "created_at": "2025-06-25T06:45:54.006Z",
      "location": "0101000020E61000007506465ED6425E402E58AA0B78292D40",
      "barangay_id": 17,
      "is_operational": true,
      "static_pressure": 40,
      "remarks": null
    },
    {
      "id": 135,
      "address": "BLOCK 5 COR 9 PEBRERO, BARANGAY MAUWAY, MANDALUYONG CITY",
      "latitude": 14.58564,
      "longitude": 121.044437,
      "type_color": "BARREL/YELLOW",
      "created_at": "2025-06-25T06:45:54.006Z",
      "location": "0101000020E6100000DF6E490ED8425E4079758E01D92B2D40",
      "barangay_id": 17,
      "is_operational": true,
      "static_pressure": 55,
      "remarks": null
    },
    {
      "id": 136,
      "address": "AMARILLO ST COR 9 DE PEBRERO, BARANGAY MAUWAY, MANDALUYONG CITY",
      "latitude": 14.583168,
      "longitude": 121.044718,
      "type_color": "BARREL/YELLOW",
      "created_at": "2025-06-25T06:45:54.006Z",
      "location": "0101000020E6100000B9E2E2A8DC425E40C02500FF942A2D40",
      "barangay_id": 17,
      "is_operational": true,
      "static_pressure": 40,
      "remarks": null
    },
    {
      "id": 137,
      "address": "9 DE PEBRERO ST COR CALBAYOG EXT., BARANGAY MAUWAY, MANDALUYONG CITY",
      "latitude": 14.581937,
      "longitude": 121.044317,
      "type_color": "BARREL/YELLOW",
      "created_at": "2025-06-25T06:45:54.006Z",
      "location": "0101000020E61000000A6AF816D6425E402AAA7EA5F3292D40",
      "barangay_id": 17,
      "is_operational": true,
      "static_pressure": 50,
      "remarks": null
    },
    {
      "id": 138,
      "address": "441 BONI AVE. COR BARANGKA DRIVE, BARANGAY MALAMIG, MANDALUYONG CITY",
      "latitude": 14.575875,
      "longitude": 121.041175,
      "type_color": "BARREL/YELLOW",
      "created_at": "2025-06-25T06:45:54.006Z",
      "location": "0101000020E61000006B9A779CA2425E40022B8716D9262D40",
      "barangay_id": 11,
      "is_operational": false,
      "static_pressure": null,
      "remarks": "Loose Thread"
    },
    {
      "id": 139,
      "address": "1515 PINATUBO ST. COR BONI AVE, BARANGAY MALAMIG, MANDALUYONG CITY",
      "latitude": 14.57319,
      "longitude": 121.045967,
      "type_color": "BARREL/YELLOW",
      "created_at": "2025-06-25T06:45:54.006Z",
      "location": "0101000020E61000007F6C921FF1425E40DAC9E02879252D40",
      "barangay_id": 11,
      "is_operational": true,
      "static_pressure": 65,
      "remarks": null
    },
    {
      "id": 140,
      "address": "ARAYAT ST COR BULUSAN ST, BARANGAY MALAMIG, MANDALUYONG CITY",
      "latitude": 14.576024,
      "longitude": 121.046381,
      "type_color": "BARREL/YELLOW",
      "created_at": "2025-06-25T06:45:54.006Z",
      "location": "0101000020E6100000F88903E8F7425E40166C239EEC262D40",
      "barangay_id": 11,
      "is_operational": true,
      "static_pressure": 55,
      "remarks": null
    },
    {
      "id": 141,
      "address": "2 ARAYAT ST, BARANGAY MALAMIG, MANDALUYONG CITY",
      "latitude": 14.57871,
      "longitude": 121.044313,
      "type_color": "BARREL/YELLOW",
      "created_at": "2025-06-25T06:45:54.006Z",
      "location": "0101000020E610000069723106D6425E407FBC57AD4C282D40",
      "barangay_id": 11,
      "is_operational": true,
      "static_pressure": 50,
      "remarks": null
    },
    {
      "id": 142,
      "address": "527 HALCON ST. COR TALAYAAN ST., BARANGAY MALAMIG, MANDALUYONG CITY",
      "latitude": 14.576753,
      "longitude": 121.042819,
      "type_color": "BARREL/YELLOW",
      "created_at": "2025-06-25T06:45:54.006Z",
      "location": "0101000020E61000006F29E78BBD425E4062BD512B4C272D40",
      "barangay_id": 11,
      "is_operational": true,
      "static_pressure": 30,
      "remarks": null
    },
    {
      "id": 143,
      "address": "8 S LAUREL ST, BARANGAY PLEASANT HILLS, MANDALUYONG CITY",
      "latitude": 14.587733,
      "longitude": 121.043992,
      "type_color": "BARREL/YELLOW",
      "created_at": "2025-06-25T06:45:54.006Z",
      "location": "0101000020E61000004852D2C3D0425E40588FFB56EB2C2D40",
      "barangay_id": 16,
      "is_operational": true,
      "static_pressure": 50,
      "remarks": "No supply of Water in the upper valve"
    },
    {
      "id": 144,
      "address": "VM TOWNHOUSE 9 DE PEBRERO ST , BARANGAY PLEASANT HILLS, MANDALUYONG CITY",
      "latitude": 14.586638,
      "longitude": 121.041155,
      "type_color": "BARREL/YELLOW",
      "created_at": "2025-06-25T06:45:54.006Z",
      "location": "0101000020E610000048C49448A2425E40842EE1D05B2C2D40",
      "barangay_id": 16,
      "is_operational": true,
      "static_pressure": 50,
      "remarks": null
    },
    {
      "id": 145,
      "address": "9 DE PEBRERO COR LAUREL ST., BARANGAY PLEASANT HILLS, MANDALUYONG CITY",
      "latitude": 14.586653,
      "longitude": 121.043218,
      "type_color": "BARREL/YELLOW",
      "created_at": "2025-06-25T06:45:54.006Z",
      "location": "0101000020E61000004E266E15C4425E40593332C85D2C2D40",
      "barangay_id": 16,
      "is_operational": false,
      "static_pressure": null,
      "remarks": "No supply of water"
    },
    {
      "id": 146,
      "address": "411 SHAW, BARANGAY PLEASANT HILLS, MANDALUYONG CITY",
      "latitude": 14.589547,
      "longitude": 121.0401,
      "type_color": "BARREL/YELLOW",
      "created_at": "2025-06-25T06:45:54.006Z",
      "location": "0101000020E6100000742497FF90425E40EAE8B81AD92D2D40",
      "barangay_id": 16,
      "is_operational": true,
      "static_pressure": 50,
      "remarks": "Lower operating stem nut was already worn out and can no longer be turned by the hydrant key"
    },
    {
      "id": 147,
      "address": "212 JAIME CARDINAL SIN ST, BARANGAY PLEASANT HILLS, MANDALUYONG CITY",
      "latitude": 14.588666,
      "longitude": 121.040145,
      "type_color": "BARREL/YELLOW",
      "created_at": "2025-06-25T06:45:54.006Z",
      "location": "0101000020E6100000448655BC91425E40C68844A1652D2D40",
      "barangay_id": 16,
      "is_operational": true,
      "static_pressure": 50,
      "remarks": null
    },
    {
      "id": 148,
      "address": "843 TORRES ST, BARANGAY PLEASANT HILLS, MANDALUYONG CITY",
      "latitude": 14.59223,
      "longitude": 121.039305,
      "type_color": "BARREL/YELLOW",
      "created_at": "2025-06-25T06:45:54.006Z",
      "location": "0101000020E61000006F641EF983425E40906B43C5382F2D40",
      "barangay_id": 16,
      "is_operational": true,
      "static_pressure": 50,
      "remarks": null
    },
    {
      "id": 149,
      "address": "A MABINI SHAW BLVD, BARANGAY PLEASANT HILLS, MANDALUYONG CITY",
      "latitude": 14.589192,
      "longitude": 121.042092,
      "type_color": "BARREL/YELLOW",
      "created_at": "2025-06-25T06:45:54.006Z",
      "location": "0101000020E610000016DBA4A2B1425E403221E692AA2D2D40",
      "barangay_id": 16,
      "is_operational": false,
      "static_pressure": null,
      "remarks": "Low water pressure"
    },
    {
      "id": 150,
      "address": "CORRECTIONAL ROAD, BARANGAY PLEASANT HILLS, MANDALUYONG CITY",
      "latitude": 14.58295,
      "longitude": 121.0385,
      "type_color": "BARREL/YELLOW",
      "created_at": "2025-06-25T06:45:54.006Z",
      "location": "0101000020E61000005839B4C876425E400A68226C782A2D40",
      "barangay_id": 16,
      "is_operational": false,
      "static_pressure": null,
      "remarks": "Hydrant was already disabled"
    },
    {
      "id": 151,
      "address": "RR1 BUILDING, 811 SOTERO LAUREL ST., COR MC COLOUGH ST., BRGY PLEASANT HILLS, MANDALUYONG CITY",
      "latitude": 14.588927,
      "longitude": 121.044938,
      "type_color": "BARREL/YELLOW",
      "created_at": "2025-06-25T06:45:54.006Z",
      "location": "0101000020E61000004016A243E0425E407976F9D6872D2D40",
      "barangay_id": 16,
      "is_operational": true,
      "static_pressure": 50,
      "remarks": null
    },
    {
      "id": 152,
      "address": "CORRECTIONAL ROAD, BARANGAY PLEASANT HILLS, MANDALUYONG CITY",
      "latitude": 14.582155,
      "longitude": 121.037784,
      "type_color": "BARREL/YELLOW",
      "created_at": "2025-06-25T06:45:54.006Z",
      "location": "0101000020E6100000F913950D6B425E40E0675C38102A2D40",
      "barangay_id": 16,
      "is_operational": true,
      "static_pressure": 45,
      "remarks": null
    },
    {
      "id": 153,
      "address": "24 M. YULO ST, BARANGAY HAGDANG BATO LIBIS, MANDALUYONG CITY",
      "latitude": 14.591003,
      "longitude": 121.033564,
      "type_color": "BARREL/YELLOW",
      "created_at": "2025-06-25T06:45:54.006Z",
      "location": "0101000020E6100000AB949EE925425E4000ADF9F1972E2D40",
      "barangay_id": 24,
      "is_operational": true,
      "static_pressure": 50,
      "remarks": null
    },
    {
      "id": 154,
      "address": "333 A. BONIFACIO, BARANGAY HAGDANG BATO LIBIS, MANDALUYONG CITY",
      "latitude": 14.588618,
      "longitude": 121.033018,
      "type_color": "BARREL/YELLOW",
      "created_at": "2025-06-25T06:45:54.006Z",
      "location": "0101000020E61000007A8B87F71C425E4082ACA7565F2D2D40",
      "barangay_id": 24,
      "is_operational": false,
      "static_pressure": null,
      "remarks": "Loose thread"
    },
    {
      "id": 155,
      "address": "309 ACACIA LANE, BARANGAY HAGDANG BATO LIBIS, MANDALUYONG CITY",
      "latitude": 14.58868,
      "longitude": 121.035563,
      "type_color": "BARREL/YELLOW",
      "created_at": "2025-06-25T06:45:54.006Z",
      "location": "0101000020E6100000A67C08AA46425E405A9E0777672D2D40",
      "barangay_id": 24,
      "is_operational": true,
      "static_pressure": 60,
      "remarks": null
    },
    {
      "id": 57,
      "address": "AGLIPAY ST. CORNER DE VENENCIA ST., BRGY. OLD ZANIGA, MANDALUYONG CITY",
      "latitude": 14.584226,
      "longitude": 121.025165,
      "type_color": "BARREL/YELLOW",
      "created_at": "2025-06-25T06:36:03.524Z",
      "location": "0101000020E61000003F00A94D9C415E401FF296AB1F2B2D40",
      "barangay_id": 25,
      "is_operational": true,
      "static_pressure": null,
      "remarks": null
    }
  ],
  "backedUpAt": "2025-11-14T12:01:41.467Z"
}